<?xml version="1.0" standalone="yes"?>
<RECORDS>
<RECORD>
<id>1</id>
<province>1</province>
<name> آذرشهر</name>
<latitude>37.75888900</latitude>
<longitude>45.97833300</longitude>
</RECORD>
<RECORD>
<id>2</id>
<province>1</province>
<name> اسکو</name>
<latitude>37.91583300</latitude>
<longitude>46.12361100</longitude>
</RECORD>
<RECORD>
<id>3</id>
<province>1</province>
<name> اهر</name>
<latitude>38.48943050</latitude>
<longitude>47.06835750</longitude>
</RECORD>
<RECORD>
<id>4</id>
<province>1</province>
<name> بستان آباد</name>
<latitude>37.85000000</latitude>
<longitude>46.83333300</longitude>
</RECORD>
<RECORD>
<id>5</id>
<province>1</province>
<name> بناب</name>
<latitude>37.34027800</latitude>
<longitude>46.05611100</longitude>
</RECORD>
<RECORD>
<id>6</id>
<province>1</province>
<name> تبریز</name>
<latitude>38.06666700</latitude>
<longitude>46.30000000</longitude>
</RECORD>
<RECORD>
<id>7</id>
<province>1</province>
<name> جلفا</name>
<latitude>38.94027800</latitude>
<longitude>45.63083300</longitude>
</RECORD>
<RECORD>
<id>8</id>
<province>1</province>
<name> چار اویماق</name>
<latitude>37.12990520</latitude>
<longitude>47.02456860</longitude>
</RECORD>
<RECORD>
<id>9</id>
<province>1</province>
<name> سراب</name>
<latitude>37.94083300</latitude>
<longitude>47.53666700</longitude>
</RECORD>
<RECORD>
<id>10</id>
<province>1</province>
<name> شبستر</name>
<latitude>38.18027800</latitude>
<longitude>45.70277800</longitude>
</RECORD>
<RECORD>
<id>11</id>
<province>1</province>
<name> عجبشیر</name>
<latitude>37.47750000</latitude>
<longitude>45.89416700</longitude>
</RECORD>
<RECORD>
<id>12</id>
<province>1</province>
<name> کلیبر</name>
<latitude>38.86944400</latitude>
<longitude>47.03555600</longitude>
</RECORD>
<RECORD>
<id>13</id>
<province>1</province>
<name> مراغه</name>
<latitude>37.38916700</latitude>
<longitude>46.23750000</longitude>
</RECORD>
<RECORD>
<id>14</id>
<province>1</province>
<name> مرند</name>
<latitude>38.42511700</latitude>
<longitude>45.76963600</longitude>
</RECORD>
<RECORD>
<id>15</id>
<province>1</province>
<name> ملکان</name>
<latitude>37.14562500</latitude>
<longitude>46.16852420</longitude>
</RECORD>
<RECORD>
<id>16</id>
<province>1</province>
<name> میانه</name>
<latitude>37.42111100</latitude>
<longitude>47.71500000</longitude>
</RECORD>
<RECORD>
<id>17</id>
<province>1</province>
<name> ورزقان</name>
<latitude>38.50972200</latitude>
<longitude>46.65444400</longitude>
</RECORD>
<RECORD>
<id>18</id>
<province>1</province>
<name> هریس</name>
<latitude>29.77518250</latitude>
<longitude>-95.31025050</longitude>
</RECORD>
<RECORD>
<id>19</id>
<province>1</province>
<name>هشترود</name>
<latitude>37.47777800</latitude>
<longitude>47.05083300</longitude>
</RECORD>
<RECORD>
<id>20</id>
<province>2</province>
<name> ارومیه</name>
<latitude>37.55527800</latitude>
<longitude>45.07250000</longitude>
</RECORD>
<RECORD>
<id>21</id>
<province>2</province>
<name> اشنویه</name>
<latitude>37.03972200</latitude>
<longitude>45.09833300</longitude>
</RECORD>
<RECORD>
<id>22</id>
<province>2</province>
<name> بوکان</name>
<latitude>36.52111100</latitude>
<longitude>46.20888900</longitude>
</RECORD>
<RECORD>
<id>23</id>
<province>2</province>
<name> پیرانشهر</name>
<latitude>36.69444400</latitude>
<longitude>45.14166700</longitude>
</RECORD>
<RECORD>
<id>24</id>
<province>2</province>
<name> تکاب</name>
<latitude>36.40083300</latitude>
<longitude>47.11333300</longitude>
</RECORD>
<RECORD>
<id>25</id>
<province>2</province>
<name> چالدران</name>
<latitude>39.06498370</latitude>
<longitude>44.38446790</longitude>
</RECORD>
<RECORD>
<id>26</id>
<province>2</province>
<name> خوی</name>
<latitude>38.55027800</latitude>
<longitude>44.95222200</longitude>
</RECORD>
<RECORD>
<id>27</id>
<province>2</province>
<name> سردشت</name>
<latitude>36.15527800</latitude>
<longitude>45.47888900</longitude>
</RECORD>
<RECORD>
<id>28</id>
<province>2</province>
<name> سلماس</name>
<latitude>38.19722200</latitude>
<longitude>44.76527800</longitude>
</RECORD>
<RECORD>
<id>29</id>
<province>2</province>
<name> شاهین دژ</name>
<latitude>36.67916700</latitude>
<longitude>46.56694400</longitude>
</RECORD>
<RECORD>
<id>30</id>
<province>2</province>
<name> ماکو</name>
<latitude>39.29527800</latitude>
<longitude>44.51666700</longitude>
</RECORD>
<RECORD>
<id>31</id>
<province>2</province>
<name> مهاباد</name>
<latitude>36.76305600</latitude>
<longitude>45.72222200</longitude>
</RECORD>
<RECORD>
<id>32</id>
<province>2</province>
<name> میاندوآب</name>
<latitude>36.96944400</latitude>
<longitude>46.10277800</longitude>
</RECORD>
<RECORD>
<id>33</id>
<province>2</province>
<name> نقده</name>
<latitude>36.95527800</latitude>
<longitude>45.38805600</longitude>
</RECORD>
<RECORD>
<id>34</id>
<province>3</province>
<name> اردبیل</name>
<latitude>38.48532760</latitude>
<longitude>47.89112090</longitude>
</RECORD>
<RECORD>
<id>35</id>
<province>3</province>
<name> بیله سوار</name>
<latitude>39.35677750</latitude>
<longitude>47.94907650</longitude>
</RECORD>
<RECORD>
<id>36</id>
<province>3</province>
<name> پارس آباد</name>
<latitude>39.64833300</latitude>
<longitude>47.91750000</longitude>
</RECORD>
<RECORD>
<id>37</id>
<province>3</province>
<name> خلخال</name>
<latitude>37.61888900</latitude>
<longitude>48.52583300</longitude>
</RECORD>
<RECORD>
<id>38</id>
<province>3</province>
<name> کوثر</name>
<latitude>31.86768660</latitude>
<longitude>54.33798020</longitude>
</RECORD>
<RECORD>
<id>39</id>
<province>3</province>
<name> گرمی</name>
<latitude>39.03722670</latitude>
<longitude>47.92770210</longitude>
</RECORD>
<RECORD>
<id>40</id>
<province>3</province>
<name> مشگین</name>
<latitude>38.39888900</latitude>
<longitude>47.68194400</longitude>
</RECORD>
<RECORD>
<id>41</id>
<province>3</province>
<name> نمین</name>
<latitude>38.42694400</latitude>
<longitude>48.48388900</longitude>
</RECORD>
<RECORD>
<id>42</id>
<province>3</province>
<name> نیر</name>
<latitude>38.03472200</latitude>
<longitude>47.99861100</longitude>
</RECORD>
<RECORD>
<id>43</id>
<province>4</province>
<name> آران و بیدگل</name>
<latitude>34.05777800</latitude>
<longitude>51.48416700</longitude>
</RECORD>
<RECORD>
<id>44</id>
<province>4</province>
<name> اردستان</name>
<latitude>33.37611100</latitude>
<longitude>52.36944400</longitude>
</RECORD>
<RECORD>
<id>45</id>
<province>4</province>
<name> اصفهان</name>
<latitude>32.65462750</latitude>
<longitude>51.66798260</longitude>
</RECORD>
<RECORD>
<id>46</id>
<province>4</province>
<name> برخوار و میمه</name>
<latitude>32.83333300</latitude>
<longitude>51.77500000</longitude>
</RECORD>
<RECORD>
<id>47</id>
<province>4</province>
<name> تیران و کرون</name>
<latitude></latitude>
<longitude></longitude>
</RECORD>
<RECORD>
<id>48</id>
<province>4</province>
<name> چادگان</name>
<latitude>32.76833300</latitude>
<longitude>50.62861100</longitude>
</RECORD>
<RECORD>
<id>49</id>
<province>4</province>
<name> خمینی شهر</name>
<latitude>32.70027800</latitude>
<longitude>51.52111100</longitude>
</RECORD>
<RECORD>
<id>50</id>
<province>4</province>
<name> خوانسار</name>
<latitude>33.22055600</latitude>
<longitude>50.31500000</longitude>
</RECORD>
<RECORD>
<id>51</id>
<province>4</province>
<name> سمیرم</name>
<latitude>31.39883460</latitude>
<longitude>51.56759300</longitude>
</RECORD>
<RECORD>
<id>52</id>
<province>4</province>
<name> شاهین شهر و میمه</name>
<latitude>33.12718520</latitude>
<longitude>51.51500770</longitude>
</RECORD>
<RECORD>
<id>53</id>
<province>4</province>
<name> شهر رضا</name>
<latitude>36.29244520</latitude>
<longitude>59.56771490</longitude>
</RECORD>
<RECORD>
<id>54</id>
<province>4</province>
<name>دهاقان</name>
<latitude>31.94000000</latitude>
<longitude>51.64777800</longitude>
</RECORD>
<RECORD>
<id>55</id>
<province>4</province>
<name> فریدن</name>
<latitude>33.02148290</latitude>
<longitude>50.30690880</longitude>
</RECORD>
<RECORD>
<id>56</id>
<province>4</province>
<name> فریدون شهر</name>
<latitude>32.94111100</latitude>
<longitude>50.12111100</longitude>
</RECORD>
<RECORD>
<id>57</id>
<province>4</province>
<name> فلاورجان</name>
<latitude>32.55527800</latitude>
<longitude>51.50972200</longitude>
</RECORD>
<RECORD>
<id>58</id>
<province>4</province>
<name> کاشان</name>
<latitude>33.98503580</latitude>
<longitude>51.40996250</longitude>
</RECORD>
<RECORD>
<id>59</id>
<province>4</province>
<name> گلپایگان</name>
<latitude>33.45361100</latitude>
<longitude>50.28833300</longitude>
</RECORD>
<RECORD>
<id>60</id>
<province>4</province>
<name> لنجان</name>
<latitude>32.47501680</latitude>
<longitude>51.30508510</longitude>
</RECORD>
<RECORD>
<id>61</id>
<province>4</province>
<name> مبارکه</name>
<latitude>32.34638900</latitude>
<longitude>51.50444400</longitude>
</RECORD>
<RECORD>
<id>62</id>
<province>4</province>
<name> نائین</name>
<latitude>32.85994450</latitude>
<longitude>53.08783210</longitude>
</RECORD>
<RECORD>
<id>63</id>
<province>4</province>
<name> نجف آباد</name>
<latitude>32.63242310</latitude>
<longitude>51.36799140</longitude>
</RECORD>
<RECORD>
<id>64</id>
<province>4</province>
<name> نطنز</name>
<latitude>33.51333300</latitude>
<longitude>51.91638900</longitude>
</RECORD>
<RECORD>
<id>65</id>
<province>5</province>
<name> ساوجبلاق</name>
<latitude>38.37879410</latitude>
<longitude>47.49743590</longitude>
</RECORD>
<RECORD>
<id>66</id>
<province>5</province>
<name> کرج</name>
<latitude>35.84001880</latitude>
<longitude>50.93909060</longitude>
</RECORD>
<RECORD>
<id>67</id>
<province>5</province>
<name> نظرآباد</name>
<latitude>35.95222200</latitude>
<longitude>50.60750000</longitude>
</RECORD>
<RECORD>
<id>68</id>
<province>5</province>
<name>طالقان</name>
<latitude>33.27291710</latitude>
<longitude>52.19853140</longitude>
</RECORD>
<RECORD>
<id>69</id>
<province>6</province>
<name> آبدانان</name>
<latitude>32.99250000</latitude>
<longitude>47.41972200</longitude>
</RECORD>
<RECORD>
<id>70</id>
<province>6</province>
<name> ایلام</name>
<latitude>33.29576180</latitude>
<longitude>46.67053400</longitude>
</RECORD>
<RECORD>
<id>71</id>
<province>6</province>
<name> ایوان</name>
<latitude>33.82722200</latitude>
<longitude>46.30972200</longitude>
</RECORD>
<RECORD>
<id>72</id>
<province>6</province>
<name> دره شهر</name>
<latitude>33.13972200</latitude>
<longitude>47.37611100</longitude>
</RECORD>
<RECORD>
<id>73</id>
<province>6</province>
<name> دهلران</name>
<latitude>32.69416700</latitude>
<longitude>47.26777800</longitude>
</RECORD>
<RECORD>
<id>74</id>
<province>6</province>
<name> شیران و چرداول</name>
<latitude>33.69383480</latitude>
<longitude>46.74784930</longitude>
</RECORD>
<RECORD>
<id>75</id>
<province>6</province>
<name> مهران</name>
<latitude>33.12222200</latitude>
<longitude>46.16472200</longitude>
</RECORD>
<RECORD>
<id>76</id>
<province>7</province>
<name> بوشهر</name>
<latitude>28.92338370</latitude>
<longitude>50.82031400</longitude>
</RECORD>
<RECORD>
<id>77</id>
<province>7</province>
<name> تنگستان</name>
<latitude>28.98375470</latitude>
<longitude>50.83307080</longitude>
</RECORD>
<RECORD>
<id>78</id>
<province>7</province>
<name> جم</name>
<latitude>27.82777800</latitude>
<longitude>52.32694400</longitude>
</RECORD>
<RECORD>
<id>79</id>
<province>7</province>
<name> دشتستان</name>
<latitude>29.26666700</latitude>
<longitude>51.21666700</longitude>
</RECORD>
<RECORD>
<id>80</id>
<province>7</province>
<name> دشتی</name>
<latitude>35.78451450</latitude>
<longitude>51.43479610</longitude>
</RECORD>
<RECORD>
<id>81</id>
<province>7</province>
<name> دیر</name>
<latitude>27.84000000</latitude>
<longitude>51.93777800</longitude>
</RECORD>
<RECORD>
<id>82</id>
<province>7</province>
<name> دیلم</name>
<latitude>30.11826320</latitude>
<longitude>50.22612270</longitude>
</RECORD>
<RECORD>
<id>83</id>
<province>7</province>
<name> کنگان</name>
<latitude>27.83704370</latitude>
<longitude>52.06454730</longitude>
</RECORD>
<RECORD>
<id>84</id>
<province>7</province>
<name> گناوه</name>
<latitude>29.57916700</latitude>
<longitude>50.51694400</longitude>
</RECORD>
<RECORD>
<id>85</id>
<province>8</province>
<name> اسلام شهر</name>
<latitude>35.54458050</latitude>
<longitude>51.23024570</longitude>
</RECORD>
<RECORD>
<id>86</id>
<province>8</province>
<name> پاکدشت</name>
<latitude>35.46689130</latitude>
<longitude>51.68606250</longitude>
</RECORD>
<RECORD>
<id>87</id>
<province>8</province>
<name> تهران</name>
<latitude>35.69611100</latitude>
<longitude>51.42305600</longitude>
</RECORD>
<RECORD>
<id>88</id>
<province>8</province>
<name> دماوند</name>
<latitude>35.94674940</latitude>
<longitude>52.12754810</longitude>
</RECORD>
<RECORD>
<id>89</id>
<province>8</province>
<name> رباط کریم</name>
<latitude>35.48472200</latitude>
<longitude>51.08277800</longitude>
</RECORD>
<RECORD>
<id>90</id>
<province>8</province>
<name> ری</name>
<latitude>48.34446630</latitude>
<longitude>-103.16518450</longitude>
</RECORD>
<RECORD>
<id>91</id>
<province>8</province>
<name> شمیرانات</name>
<latitude>35.95480210</latitude>
<longitude>51.59916430</longitude>
</RECORD>
<RECORD>
<id>92</id>
<province>8</province>
<name> شهریار</name>
<latitude>35.65972200</latitude>
<longitude>51.05916700</longitude>
</RECORD>
<RECORD>
<id>93</id>
<province>8</province>
<name> فیروزکوه</name>
<latitude>35.43867100</latitude>
<longitude>60.80938700</longitude>
</RECORD>
<RECORD>
<id>94</id>
<province>8</province>
<name> ورامین</name>
<latitude>35.32524070</latitude>
<longitude>51.64719870</longitude>
</RECORD>
<RECORD>
<id>95</id>
<province>9</province>
<name> اردل</name>
<latitude>31.99972200</latitude>
<longitude>50.66166700</longitude>
</RECORD>
<RECORD>
<id>96</id>
<province>9</province>
<name> بروجن</name>
<latitude>31.96527800</latitude>
<longitude>51.28722200</longitude>
</RECORD>
<RECORD>
<id>97</id>
<province>9</province>
<name> شهرکرد</name>
<latitude>32.32555600</latitude>
<longitude>50.86444400</longitude>
</RECORD>
<RECORD>
<id>98</id>
<province>9</province>
<name> فارسان</name>
<latitude>32.25820660</latitude>
<longitude>50.57050880</longitude>
</RECORD>
<RECORD>
<id>99</id>
<province>9</province>
<name> کوهرنگ</name>
<latitude>32.55583640</latitude>
<longitude>51.67872520</longitude>
</RECORD>
<RECORD>
<id>100</id>
<province>9</province>
<name> لردگان</name>
<latitude>31.51027800</latitude>
<longitude>50.82944400</longitude>
</RECORD>
<RECORD>
<id>101</id>
<province>10</province>
<name> بیرجند</name>
<latitude>32.86490390</latitude>
<longitude>59.22624720</longitude>
</RECORD>
<RECORD>
<id>102</id>
<province>10</province>
<name> درمیان</name>
<latitude>33.03394050</latitude>
<longitude>60.11847970</longitude>
</RECORD>
<RECORD>
<id>103</id>
<province>10</province>
<name> سرایان</name>
<latitude>33.86027800</latitude>
<longitude>58.52166700</longitude>
</RECORD>
<RECORD>
<id>104</id>
<province>10</province>
<name> سر بیشه</name>
<latitude>32.57555600</latitude>
<longitude>59.79833300</longitude>
</RECORD>
<RECORD>
<id>105</id>
<province>10</province>
<name> فردوس</name>
<latitude>34.01861100</latitude>
<longitude>58.17222200</longitude>
</RECORD>
<RECORD>
<id>106</id>
<province>10</province>
<name> قائن</name>
<latitude>33.72666700</latitude>
<longitude>59.18444400</longitude>
</RECORD>
<RECORD>
<id>107</id>
<province>10</province>
<name> نهبندان</name>
<latitude>31.54194400</latitude>
<longitude>60.03638900</longitude>
</RECORD>
<RECORD>
<id>108</id>
<province>11</province>
<name> برد سکن</name>
<latitude>35.26083300</latitude>
<longitude>57.96972200</longitude>
</RECORD>
<RECORD>
<id>109</id>
<province>11</province>
<name> بجستان</name>
<latitude>34.51638900</latitude>
<longitude>58.18444400</longitude>
</RECORD>
<RECORD>
<id>110</id>
<province>11</province>
<name> تایباد</name>
<latitude>34.74000000</latitude>
<longitude>60.77555600</longitude>
</RECORD>
<RECORD>
<id>111</id>
<province>11</province>
<name> تحت جلگه</name>
<latitude></latitude>
<longitude></longitude>
</RECORD>
<RECORD>
<id>112</id>
<province>11</province>
<name> تربت جام</name>
<latitude>35.24388900</latitude>
<longitude>60.62250000</longitude>
</RECORD>
<RECORD>
<id>113</id>
<province>11</province>
<name> تربت حیدریه</name>
<latitude>35.27388900</latitude>
<longitude>59.21944400</longitude>
</RECORD>
<RECORD>
<id>114</id>
<province>11</province>
<name> چناران</name>
<latitude>36.64555600</latitude>
<longitude>59.12111100</longitude>
</RECORD>
<RECORD>
<id>115</id>
<province>11</province>
<name> جغتای</name>
<latitude>36.57888530</latitude>
<longitude>57.25121500</longitude>
</RECORD>
<RECORD>
<id>116</id>
<province>11</province>
<name> جوین</name>
<latitude>36.63622380</latitude>
<longitude>57.50799120</longitude>
</RECORD>
<RECORD>
<id>117</id>
<province>11</province>
<name> خلیل آباد</name>
<latitude>35.25583300</latitude>
<longitude>58.28638900</longitude>
</RECORD>
<RECORD>
<id>118</id>
<province>11</province>
<name> خواف</name>
<latitude>34.57638900</latitude>
<longitude>60.14083300</longitude>
</RECORD>
<RECORD>
<id>119</id>
<province>11</province>
<name> درگز</name>
<latitude>37.44444400</latitude>
<longitude>59.10805600</longitude>
</RECORD>
<RECORD>
<id>120</id>
<province>11</province>
<name> رشتخوار</name>
<latitude>34.97472200</latitude>
<longitude>59.62361100</longitude>
</RECORD>
<RECORD>
<id>121</id>
<province>11</province>
<name> زاوه</name>
<latitude>35.27473220</latitude>
<longitude>59.46777270</longitude>
</RECORD>
<RECORD>
<id>122</id>
<province>11</province>
<name> سبزوار</name>
<latitude>36.21518230</latitude>
<longitude>57.66782280</longitude>
</RECORD>
<RECORD>
<id>123</id>
<province>11</province>
<name> سرخس</name>
<latitude>36.54500000</latitude>
<longitude>61.15777800</longitude>
</RECORD>
<RECORD>
<id>124</id>
<province>11</province>
<name> فریمان</name>
<latitude>35.70694400</latitude>
<longitude>59.85000000</longitude>
</RECORD>
<RECORD>
<id>125</id>
<province>11</province>
<name> قوچان</name>
<latitude>37.10611100</latitude>
<longitude>58.50944400</longitude>
</RECORD>
<RECORD>
<id>126</id>
<province>11</province>
<name>طرقبه شاندیز</name>
<latitude>36.35488410</latitude>
<longitude>59.43839550</longitude>
</RECORD>
<RECORD>
<id>127</id>
<province>11</province>
<name> کاشمر</name>
<latitude>35.23833300</latitude>
<longitude>58.46555600</longitude>
</RECORD>
<RECORD>
<id>128</id>
<province>11</province>
<name> کلات</name>
<latitude>34.19833300</latitude>
<longitude>58.54444400</longitude>
</RECORD>
<RECORD>
<id>129</id>
<province>11</province>
<name> گناباد</name>
<latitude>34.35277800</latitude>
<longitude>58.68361100</longitude>
</RECORD>
<RECORD>
<id>130</id>
<province>11</province>
<name> مشهد</name>
<latitude>36.26046230</latitude>
<longitude>59.61675490</longitude>
</RECORD>
<RECORD>
<id>131</id>
<province>11</province>
<name> مه ولات</name>
<latitude>35.02108290</latitude>
<longitude>58.78181160</longitude>
</RECORD>
<RECORD>
<id>132</id>
<province>11</province>
<name> نیشابور</name>
<latitude>36.21408650</latitude>
<longitude>58.79609150</longitude>
</RECORD>
<RECORD>
<id>133</id>
<province>12</province>
<name> اسفراین</name>
<latitude>37.07638900</latitude>
<longitude>57.51000000</longitude>
</RECORD>
<RECORD>
<id>134</id>
<province>12</province>
<name> بجنورد</name>
<latitude>37.47500000</latitude>
<longitude>57.33333300</longitude>
</RECORD>
<RECORD>
<id>135</id>
<province>12</province>
<name> جاجرم</name>
<latitude>36.95000000</latitude>
<longitude>56.38000000</longitude>
</RECORD>
<RECORD>
<id>136</id>
<province>12</province>
<name> شیروان</name>
<latitude>37.40923570</latitude>
<longitude>57.92761840</longitude>
</RECORD>
<RECORD>
<id>137</id>
<province>12</province>
<name> فاروج</name>
<latitude>37.23111100</latitude>
<longitude>58.21888900</longitude>
</RECORD>
<RECORD>
<id>138</id>
<province>12</province>
<name> مانه و سملقان</name>
<latitude>37.66206140</latitude>
<longitude>56.74120700</longitude>
</RECORD>
<RECORD>
<id>139</id>
<province>13</province>
<name> آبادان</name>
<latitude>30.34729600</latitude>
<longitude>48.29340040</longitude>
</RECORD>
<RECORD>
<id>140</id>
<province>13</province>
<name> امیدیه</name>
<latitude>30.74583300</latitude>
<longitude>49.70861100</longitude>
</RECORD>
<RECORD>
<id>141</id>
<province>13</province>
<name> اندیمشک</name>
<latitude>32.46000000</latitude>
<longitude>48.35916700</longitude>
</RECORD>
<RECORD>
<id>142</id>
<province>13</province>
<name> اهواز</name>
<latitude>31.31832720</latitude>
<longitude>48.67061870</longitude>
</RECORD>
<RECORD>
<id>143</id>
<province>13</province>
<name> ایذه</name>
<latitude>31.83416700</latitude>
<longitude>49.86722200</longitude>
</RECORD>
<RECORD>
<id>144</id>
<province>13</province>
<name> باغ ملک</name>
<latitude>32.39472060</latitude>
<longitude>51.59653280</longitude>
</RECORD>
<RECORD>
<id>145</id>
<province>13</province>
<name> بندرماهشهر</name>
<latitude>30.55888900</latitude>
<longitude>49.19805600</longitude>
</RECORD>
<RECORD>
<id>146</id>
<province>13</province>
<name> بهبهان</name>
<latitude>30.59583300</latitude>
<longitude>50.24166700</longitude>
</RECORD>
<RECORD>
<id>147</id>
<province>13</province>
<name> خرمشهر</name>
<latitude>30.42562190</latitude>
<longitude>48.18911850</longitude>
</RECORD>
<RECORD>
<id>148</id>
<province>13</province>
<name> دزفول</name>
<latitude>32.38307770</latitude>
<longitude>48.42358410</longitude>
</RECORD>
<RECORD>
<id>149</id>
<province>13</province>
<name> دشت آزادگان</name>
<latitude>31.55805600</latitude>
<longitude>48.18083300</longitude>
</RECORD>
<RECORD>
<id>150</id>
<province>13</province>
<name> رامشیر</name>
<latitude>30.89565210</latitude>
<longitude>49.40947010</longitude>
</RECORD>
<RECORD>
<id>151</id>
<province>13</province>
<name> رامهرمز</name>
<latitude>31.28000000</latitude>
<longitude>49.60361100</longitude>
</RECORD>
<RECORD>
<id>152</id>
<province>13</province>
<name> شادگان</name>
<latitude>30.64972200</latitude>
<longitude>48.66472200</longitude>
</RECORD>
<RECORD>
<id>153</id>
<province>13</province>
<name> شوش</name>
<latitude>32.19416700</latitude>
<longitude>48.24361100</longitude>
</RECORD>
<RECORD>
<id>154</id>
<province>13</province>
<name> شوشتر</name>
<latitude>32.04555600</latitude>
<longitude>48.85666700</longitude>
</RECORD>
<RECORD>
<id>155</id>
<province>13</province>
<name> گتوند</name>
<latitude>32.25138900</latitude>
<longitude>48.81611100</longitude>
</RECORD>
<RECORD>
<id>156</id>
<province>13</province>
<name> لالی</name>
<latitude>32.32888900</latitude>
<longitude>49.09361100</longitude>
</RECORD>
<RECORD>
<id>157</id>
<province>13</province>
<name> مسجد سلیمان</name>
<latitude>31.93638900</latitude>
<longitude>49.30388900</longitude>
</RECORD>
<RECORD>
<id>158</id>
<province>13</province>
<name> هندیجان</name>
<latitude>30.23638900</latitude>
<longitude>49.71194400</longitude>
</RECORD>
<RECORD>
<id>159</id>
<province>14</province>
<name> ابهر</name>
<latitude>36.14666700</latitude>
<longitude>49.21805600</longitude>
</RECORD>
<RECORD>
<id>160</id>
<province>14</province>
<name> ایجرود</name>
<latitude>36.41609280</latitude>
<longitude>48.24692490</longitude>
</RECORD>
<RECORD>
<id>161</id>
<province>14</province>
<name> خدابنده</name>
<latitude>36.11472200</latitude>
<longitude>48.59111100</longitude>
</RECORD>
<RECORD>
<id>162</id>
<province>14</province>
<name> خرمدره</name>
<latitude>36.20305600</latitude>
<longitude>49.18694400</longitude>
</RECORD>
<RECORD>
<id>163</id>
<province>14</province>
<name> زنجان</name>
<latitude>36.50181850</latitude>
<longitude>48.39881860</longitude>
</RECORD>
<RECORD>
<id>164</id>
<province>14</province>
<name> طارم</name>
<latitude>28.18042870</latitude>
<longitude>55.74533670</longitude>
</RECORD>
<RECORD>
<id>165</id>
<province>14</province>
<name> ماه نشان</name>
<latitude>36.74444400</latitude>
<longitude>47.67250000</longitude>
</RECORD>
<RECORD>
<id>166</id>
<province>15</province>
<name> دامغان</name>
<latitude>36.16833300</latitude>
<longitude>54.34805600</longitude>
</RECORD>
<RECORD>
<id>167</id>
<province>15</province>
<name> سمنان</name>
<latitude>35.22555850</latitude>
<longitude>54.43421380</longitude>
</RECORD>
<RECORD>
<id>168</id>
<province>15</province>
<name> شاهرود</name>
<latitude>36.41805600</latitude>
<longitude>54.97638900</longitude>
</RECORD>
<RECORD>
<id>169</id>
<province>15</province>
<name> گرمسار</name>
<latitude>35.21833300</latitude>
<longitude>52.34083300</longitude>
</RECORD>
<RECORD>
<id>170</id>
<province>15</province>
<name> مهدی شهر</name>
<latitude>35.70000000</latitude>
<longitude>53.35000000</longitude>
</RECORD>
<RECORD>
<id>171</id>
<province>16</province>
<name> ایرانشهر</name>
<latitude>27.20250000</latitude>
<longitude>60.68472200</longitude>
</RECORD>
<RECORD>
<id>172</id>
<province>16</province>
<name> چابهار</name>
<latitude>25.29194400</latitude>
<longitude>60.64305600</longitude>
</RECORD>
<RECORD>
<id>173</id>
<province>16</province>
<name> خاش</name>
<latitude>28.21666700</latitude>
<longitude>61.20000000</longitude>
</RECORD>
<RECORD>
<id>174</id>
<province>16</province>
<name> دلگان</name>
<latitude>27.60773570</latitude>
<longitude>59.47209040</longitude>
</RECORD>
<RECORD>
<id>175</id>
<province>16</province>
<name> زابل</name>
<latitude>31.02861100</latitude>
<longitude>61.50111100</longitude>
</RECORD>
<RECORD>
<id>176</id>
<province>16</province>
<name> زاهدان</name>
<latitude>29.49638900</latitude>
<longitude>60.86277800</longitude>
</RECORD>
<RECORD>
<id>177</id>
<province>16</province>
<name> زهک</name>
<latitude>30.89388900</latitude>
<longitude>61.68027800</longitude>
</RECORD>
<RECORD>
<id>178</id>
<province>16</province>
<name> سراوان</name>
<latitude>27.37083300</latitude>
<longitude>62.33416700</longitude>
</RECORD>
<RECORD>
<id>179</id>
<province>16</province>
<name> سرباز</name>
<latitude>26.63083300</latitude>
<longitude>61.25638900</longitude>
</RECORD>
<RECORD>
<id>180</id>
<province>16</province>
<name> کنارک</name>
<latitude>25.36027800</latitude>
<longitude>60.39944400</longitude>
</RECORD>
<RECORD>
<id>181</id>
<province>16</province>
<name> نیکشهر</name>
<latitude>26.41847190</latitude>
<longitude>60.21107520</longitude>
</RECORD>
<RECORD>
<id>182</id>
<province>17</province>
<name> آباده</name>
<latitude>31.16083300</latitude>
<longitude>52.65055600</longitude>
</RECORD>
<RECORD>
<id>183</id>
<province>17</province>
<name> ارسنجان</name>
<latitude>29.91250000</latitude>
<longitude>53.30861100</longitude>
</RECORD>
<RECORD>
<id>184</id>
<province>17</province>
<name> استهبان</name>
<latitude>29.12666700</latitude>
<longitude>54.04222200</longitude>
</RECORD>
<RECORD>
<id>185</id>
<province>17</province>
<name> اقلید</name>
<latitude>30.89888900</latitude>
<longitude>52.68666700</longitude>
</RECORD>
<RECORD>
<id>186</id>
<province>17</province>
<name> بوانات</name>
<latitude>30.48559070</latitude>
<longitude>53.59333040</longitude>
</RECORD>
<RECORD>
<id>187</id>
<province>17</province>
<name> پاسارگاد</name>
<latitude>30.20330750</latitude>
<longitude>53.17901000</longitude>
</RECORD>
<RECORD>
<id>188</id>
<province>17</province>
<name> جهرم</name>
<latitude>28.50000000</latitude>
<longitude>53.56055600</longitude>
</RECORD>
<RECORD>
<id>189</id>
<province>17</province>
<name> خرم بید</name>
<latitude>32.67083450</latitude>
<longitude>51.64702790</longitude>
</RECORD>
<RECORD>
<id>190</id>
<province>17</province>
<name> خنج</name>
<latitude>27.89138900</latitude>
<longitude>53.43444400</longitude>
</RECORD>
<RECORD>
<id>191</id>
<province>17</province>
<name> داراب</name>
<latitude>28.75194400</latitude>
<longitude>54.54444400</longitude>
</RECORD>
<RECORD>
<id>192</id>
<province>17</province>
<name> زرین دشت</name>
<latitude>28.35450470</latitude>
<longitude>54.41780060</longitude>
</RECORD>
<RECORD>
<id>193</id>
<province>17</province>
<name> سپیدان</name>
<latitude>30.24252820</latitude>
<longitude>51.99241850</longitude>
</RECORD>
<RECORD>
<id>194</id>
<province>17</province>
<name> شیراز</name>
<latitude>29.59176770</latitude>
<longitude>52.58369820</longitude>
</RECORD>
<RECORD>
<id>195</id>
<province>17</province>
<name> فراشبند</name>
<latitude>28.87138900</latitude>
<longitude>52.09166700</longitude>
</RECORD>
<RECORD>
<id>196</id>
<province>17</province>
<name> فسا</name>
<latitude>28.93833300</latitude>
<longitude>53.64833300</longitude>
</RECORD>
<RECORD>
<id>197</id>
<province>17</province>
<name> فیروزآباد</name>
<latitude>28.84388900</latitude>
<longitude>52.57083300</longitude>
</RECORD>
<RECORD>
<id>198</id>
<province>17</province>
<name> قیر و کارزین</name>
<latitude>28.42998000</latitude>
<longitude>53.09516000</longitude>
</RECORD>
<RECORD>
<id>199</id>
<province>17</province>
<name> کازرون</name>
<latitude>29.61944400</latitude>
<longitude>51.65416700</longitude>
</RECORD>
<RECORD>
<id>200</id>
<province>17</province>
<name> لارستان</name>
<latitude>27.68111100</latitude>
<longitude>54.34027800</longitude>
</RECORD>
<RECORD>
<id>201</id>
<province>17</province>
<name> لامرد</name>
<latitude>27.34237710</latitude>
<longitude>53.18035580</longitude>
</RECORD>
<RECORD>
<id>202</id>
<province>17</province>
<name> مرودشت</name>
<latitude>29.87416700</latitude>
<longitude>52.80250000</longitude>
</RECORD>
<RECORD>
<id>203</id>
<province>17</province>
<name> ممسنی</name>
<latitude>31.96003450</latitude>
<longitude>50.51226520</longitude>
</RECORD>
<RECORD>
<id>204</id>
<province>17</province>
<name> مهر</name>
<latitude>27.55599310</latitude>
<longitude>52.88472050</longitude>
</RECORD>
<RECORD>
<id>205</id>
<province>17</province>
<name> نی ریز</name>
<latitude>29.19888900</latitude>
<longitude>54.32777800</longitude>
</RECORD>
<RECORD>
<id>206</id>
<province>18</province>
<name> آبیک</name>
<latitude>36.04000000</latitude>
<longitude>50.53111100</longitude>
</RECORD>
<RECORD>
<id>207</id>
<province>18</province>
<name> البرز</name>
<latitude>35.99604670</latitude>
<longitude>50.92892460</longitude>
</RECORD>
<RECORD>
<id>208</id>
<province>18</province>
<name> بوئین زهرا</name>
<latitude>35.76694400</latitude>
<longitude>50.05777800</longitude>
</RECORD>
<RECORD>
<id>209</id>
<province>18</province>
<name> تاکستان</name>
<latitude>36.06972200</latitude>
<longitude>49.69583300</longitude>
</RECORD>
<RECORD>
<id>210</id>
<province>18</province>
<name> قزوین</name>
<latitude>36.08813170</latitude>
<longitude>49.85472660</longitude>
</RECORD>
<RECORD>
<id>211</id>
<province>19</province>
<name> قم</name>
<latitude>34.63994430</latitude>
<longitude>50.87594190</longitude>
</RECORD>
<RECORD>
<id>212</id>
<province>20</province>
<name> بانه</name>
<latitude>35.99859990</latitude>
<longitude>45.88234280</longitude>
</RECORD>
<RECORD>
<id>213</id>
<province>20</province>
<name> بیجار</name>
<latitude>32.73527800</latitude>
<longitude>59.46666700</longitude>
</RECORD>
<RECORD>
<id>214</id>
<province>20</province>
<name> دیواندره</name>
<latitude>35.91388900</latitude>
<longitude>47.02388900</longitude>
</RECORD>
<RECORD>
<id>215</id>
<province>20</province>
<name> سروآباد</name>
<latitude>35.31250000</latitude>
<longitude>46.36694400</longitude>
</RECORD>
<RECORD>
<id>216</id>
<province>20</province>
<name> سقز</name>
<latitude>36.24638900</latitude>
<longitude>46.26638900</longitude>
</RECORD>
<RECORD>
<id>217</id>
<province>20</province>
<name> سنندج</name>
<latitude>35.32187480</latitude>
<longitude>46.98616470</longitude>
</RECORD>
<RECORD>
<id>218</id>
<province>20</province>
<name> قروه</name>
<latitude>35.16789340</latitude>
<longitude>47.80382720</longitude>
</RECORD>
<RECORD>
<id>219</id>
<province>20</province>
<name> کامیاران</name>
<latitude>34.79555600</latitude>
<longitude>46.93555600</longitude>
</RECORD>
<RECORD>
<id>220</id>
<province>20</province>
<name> مریوان</name>
<latitude>35.52694400</latitude>
<longitude>46.17638900</longitude>
</RECORD>
<RECORD>
<id>221</id>
<province>21</province>
<name> بافت</name>
<latitude>29.23305600</latitude>
<longitude>56.60222200</longitude>
</RECORD>
<RECORD>
<id>222</id>
<province>21</province>
<name> بردسیر</name>
<latitude>29.92750000</latitude>
<longitude>56.57222200</longitude>
</RECORD>
<RECORD>
<id>223</id>
<province>21</province>
<name> بم</name>
<latitude>29.10611100</latitude>
<longitude>58.35694400</longitude>
</RECORD>
<RECORD>
<id>224</id>
<province>21</province>
<name> جیرفت</name>
<latitude>28.67511240</latitude>
<longitude>57.73715690</longitude>
</RECORD>
<RECORD>
<id>225</id>
<province>21</province>
<name> راور</name>
<latitude>31.26555600</latitude>
<longitude>56.80555600</longitude>
</RECORD>
<RECORD>
<id>226</id>
<province>21</province>
<name> رفسنجان</name>
<latitude>30.40666700</latitude>
<longitude>55.99388900</longitude>
</RECORD>
<RECORD>
<id>227</id>
<province>21</province>
<name> رودبار جنوب</name>
<latitude>36.82412890</latitude>
<longitude>49.42372740</longitude>
</RECORD>
<RECORD>
<id>228</id>
<province>21</province>
<name> زرند</name>
<latitude>30.81277800</latitude>
<longitude>56.56388900</longitude>
</RECORD>
<RECORD>
<id>229</id>
<province>21</province>
<name> سیرجان</name>
<latitude>29.45866760</latitude>
<longitude>55.67140510</longitude>
</RECORD>
<RECORD>
<id>230</id>
<province>21</province>
<name> شهر بابک</name>
<latitude>30.11638900</latitude>
<longitude>55.11861100</longitude>
</RECORD>
<RECORD>
<id>231</id>
<province>21</province>
<name> عنبرآباد</name>
<latitude>28.47833330</latitude>
<longitude>57.84138890</longitude>
</RECORD>
<RECORD>
<id>232</id>
<province>21</province>
<name> قلعه گنج</name>
<latitude>27.52361100</latitude>
<longitude>57.88111100</longitude>
</RECORD>
<RECORD>
<id>233</id>
<province>21</province>
<name> کرمان</name>
<latitude>29.48500890</latitude>
<longitude>57.64390480</longitude>
</RECORD>
<RECORD>
<id>234</id>
<province>21</province>
<name> کوهبنان</name>
<latitude>31.41027800</latitude>
<longitude>56.28250000</longitude>
</RECORD>
<RECORD>
<id>235</id>
<province>21</province>
<name> کهنوج</name>
<latitude>27.94676030</latitude>
<longitude>57.70625720</longitude>
</RECORD>
<RECORD>
<id>236</id>
<province>21</province>
<name> منوجان</name>
<latitude>27.44756260</latitude>
<longitude>57.50516160</longitude>
</RECORD>
<RECORD>
<id>237</id>
<province>22</province>
<name> اسلام آباد غرب</name>
<latitude>33.72938820</latitude>
<longitude>73.09314610</longitude>
</RECORD>
<RECORD>
<id>238</id>
<province>22</province>
<name> پاوه</name>
<latitude>35.04333300</latitude>
<longitude>46.35638900</longitude>
</RECORD>
<RECORD>
<id>239</id>
<province>22</province>
<name> ثلاث باباجانی</name>
<latitude>34.73583710</latitude>
<longitude>46.14939690</longitude>
</RECORD>
<RECORD>
<id>240</id>
<province>22</province>
<name> جوانرود</name>
<latitude>34.80666700</latitude>
<longitude>46.48861100</longitude>
</RECORD>
<RECORD>
<id>241</id>
<province>22</province>
<name> دالاهو</name>
<latitude>34.28416700</latitude>
<longitude>46.24222200</longitude>
</RECORD>
<RECORD>
<id>242</id>
<province>22</province>
<name> روانسر</name>
<latitude>34.71208920</latitude>
<longitude>46.65129980</longitude>
</RECORD>
<RECORD>
<id>243</id>
<province>22</province>
<name> سرپل ذهاب</name>
<latitude>34.46111100</latitude>
<longitude>45.86277800</longitude>
</RECORD>
<RECORD>
<id>244</id>
<province>22</province>
<name> سنقر</name>
<latitude>34.78361100</latitude>
<longitude>47.60027800</longitude>
</RECORD>
<RECORD>
<id>245</id>
<province>22</province>
<name> صحنه</name>
<latitude>34.48138900</latitude>
<longitude>47.69083300</longitude>
</RECORD>
<RECORD>
<id>246</id>
<province>22</province>
<name> قصر شیرین</name>
<latitude>34.51590310</latitude>
<longitude>45.57768590</longitude>
</RECORD>
<RECORD>
<id>247</id>
<province>22</province>
<name> کرمانشاه</name>
<latitude>34.45762330</latitude>
<longitude>46.67053400</longitude>
</RECORD>
<RECORD>
<id>248</id>
<province>22</province>
<name> کنگاور</name>
<latitude>34.50416700</latitude>
<longitude>47.96527800</longitude>
</RECORD>
<RECORD>
<id>249</id>
<province>22</province>
<name> گیلان غرب</name>
<latitude>34.14222200</latitude>
<longitude>45.92027800</longitude>
</RECORD>
<RECORD>
<id>250</id>
<province>22</province>
<name> هرسین</name>
<latitude>34.27191490</latitude>
<longitude>47.60461830</longitude>
</RECORD>
<RECORD>
<id>251</id>
<province>23</province>
<name> بویر احمد</name>
<latitude>30.72458600</latitude>
<longitude>50.84563230</longitude>
</RECORD>
<RECORD>
<id>252</id>
<province>23</province>
<name> بهمئی</name>
<latitude></latitude>
<longitude></longitude>
</RECORD>
<RECORD>
<id>253</id>
<province>23</province>
<name> دنا</name>
<latitude>30.95166660</latitude>
<longitude>51.43750000</longitude>
</RECORD>
<RECORD>
<id>254</id>
<province>23</province>
<name> کهگیلویه</name>
<latitude></latitude>
<longitude></longitude>
</RECORD>
<RECORD>
<id>255</id>
<province>23</province>
<name> گچساران</name>
<latitude>30.35000000</latitude>
<longitude>50.80000000</longitude>
</RECORD>
<RECORD>
<id>256</id>
<province>24</province>
<name> آزادشهر</name>
<latitude>37.08694400</latitude>
<longitude>55.17388900</longitude>
</RECORD>
<RECORD>
<id>257</id>
<province>24</province>
<name> آق قلا</name>
<latitude>37.01388900</latitude>
<longitude>54.45500000</longitude>
</RECORD>
<RECORD>
<id>258</id>
<province>24</province>
<name> بندر گز</name>
<latitude>36.77496500</latitude>
<longitude>53.94617490</longitude>
</RECORD>
<RECORD>
<id>259</id>
<province>24</province>
<name> بندر ترکمن</name>
<latitude>36.90166700</latitude>
<longitude>54.07083300</longitude>
</RECORD>
<RECORD>
<id>260</id>
<province>24</province>
<name> رامیان</name>
<latitude>37.01611100</latitude>
<longitude>55.14111100</longitude>
</RECORD>
<RECORD>
<id>261</id>
<province>24</province>
<name> علی آباد</name>
<latitude>36.30822600</latitude>
<longitude>74.61954740</longitude>
</RECORD>
<RECORD>
<id>262</id>
<province>24</province>
<name> کرد کوی</name>
<latitude>36.79414260</latitude>
<longitude>54.11027400</longitude>
</RECORD>
<RECORD>
<id>263</id>
<province>24</province>
<name> کلاله</name>
<latitude>37.38083300</latitude>
<longitude>55.49166700</longitude>
</RECORD>
<RECORD>
<id>264</id>
<province>24</province>
<name> گرگان</name>
<latitude>36.84564270</latitude>
<longitude>54.43933630</longitude>
</RECORD>
<RECORD>
<id>265</id>
<province>24</province>
<name> گنبد کاووس</name>
<latitude>37.25000000</latitude>
<longitude>55.16722200</longitude>
</RECORD>
<RECORD>
<id>266</id>
<province>24</province>
<name> مینو دشت</name>
<latitude>37.22888900</latitude>
<longitude>55.37472200</longitude>
</RECORD>
<RECORD>
<id>267</id>
<province>25</province>
<name> آستارا</name>
<latitude>38.42916700</latitude>
<longitude>48.87194400</longitude>
</RECORD>
<RECORD>
<id>268</id>
<province>25</province>
<name> آستانه اشرفیه</name>
<latitude>37.25980220</latitude>
<longitude>49.94366210</longitude>
</RECORD>
<RECORD>
<id>269</id>
<province>25</province>
<name> املش</name>
<latitude>37.09163340</latitude>
<longitude>50.18693770</longitude>
</RECORD>
<RECORD>
<id>270</id>
<province>25</province>
<name> بندر انزلی</name>
<latitude>37.47244670</latitude>
<longitude>49.45873120</longitude>
</RECORD>
<RECORD>
<id>271</id>
<province>25</province>
<name> رشت</name>
<latitude>37.28083300</latitude>
<longitude>49.58305600</longitude>
</RECORD>
<RECORD>
<id>272</id>
<province>25</province>
<name> رضوانشهر</name>
<latitude>37.55067500</latitude>
<longitude>49.14098010</longitude>
</RECORD>
<RECORD>
<id>273</id>
<province>25</province>
<name> رودبار</name>
<latitude>36.82412890</latitude>
<longitude>49.42372740</longitude>
</RECORD>
<RECORD>
<id>274</id>
<province>25</province>
<name> رودسر</name>
<latitude>37.13784150</latitude>
<longitude>50.28361990</longitude>
</RECORD>
<RECORD>
<id>275</id>
<province>25</province>
<name> سیاهکل</name>
<latitude>37.15277800</latitude>
<longitude>49.87083300</longitude>
</RECORD>
<RECORD>
<id>276</id>
<province>25</province>
<name> شفت</name>
<latitude>39.63063100</latitude>
<longitude>-78.92954200</longitude>
</RECORD>
<RECORD>
<id>277</id>
<province>25</province>
<name> صومعه سرا</name>
<latitude>37.31166700</latitude>
<longitude>49.32194400</longitude>
</RECORD>
<RECORD>
<id>278</id>
<province>25</province>
<name> طوالش</name>
<latitude>37.00000000</latitude>
<longitude>48.42222220</longitude>
</RECORD>
<RECORD>
<id>279</id>
<province>25</province>
<name> فومن</name>
<latitude>37.22388900</latitude>
<longitude>49.31250000</longitude>
</RECORD>
<RECORD>
<id>280</id>
<province>25</province>
<name> لاهیجان</name>
<latitude>37.20722200</latitude>
<longitude>50.00388900</longitude>
</RECORD>
<RECORD>
<id>281</id>
<province>25</province>
<name> لنگرود</name>
<latitude>37.19694400</latitude>
<longitude>50.15361100</longitude>
</RECORD>
<RECORD>
<id>282</id>
<province>25</province>
<name> ماسال</name>
<latitude>37.36211850</latitude>
<longitude>49.13147690</longitude>
</RECORD>
<RECORD>
<id>283</id>
<province>26</province>
<name> ازنا</name>
<latitude>33.45583300</latitude>
<longitude>49.45555600</longitude>
</RECORD>
<RECORD>
<id>284</id>
<province>26</province>
<name> الیگودرز</name>
<latitude>33.40055600</latitude>
<longitude>49.69500000</longitude>
</RECORD>
<RECORD>
<id>285</id>
<province>26</province>
<name> بروجرد</name>
<latitude>33.89419930</latitude>
<longitude>48.76703300</longitude>
</RECORD>
<RECORD>
<id>286</id>
<province>26</province>
<name> پلدختر</name>
<latitude>33.15361100</latitude>
<longitude>47.71361100</longitude>
</RECORD>
<RECORD>
<id>287</id>
<province>26</province>
<name> خرم آباد</name>
<latitude>33.48777800</latitude>
<longitude>48.35583300</longitude>
</RECORD>
<RECORD>
<id>288</id>
<province>26</province>
<name> دورود</name>
<latitude>33.49550280</latitude>
<longitude>49.06317430</longitude>
</RECORD>
<RECORD>
<id>289</id>
<province>17</province>
<name> لامرد</name>
<latitude>27.34237710</latitude>
<longitude>53.18035580</longitude>
</RECORD>
<RECORD>
<id>290</id>
<province>17</province>
<name> مرودشت</name>
<latitude>29.87416700</latitude>
<longitude>52.80250000</longitude>
</RECORD>
<RECORD>
<id>291</id>
<province>17</province>
<name> ممسنی</name>
<latitude>31.96003450</latitude>
<longitude>50.51226520</longitude>
</RECORD>
<RECORD>
<id>292</id>
<province>17</province>
<name> مهر</name>
<latitude>27.55599310</latitude>
<longitude>52.88472050</longitude>
</RECORD>
<RECORD>
<id>293</id>
<province>17</province>
<name> نی ریز</name>
<latitude>29.19888900</latitude>
<longitude>54.32777800</longitude>
</RECORD>
<RECORD>
<id>294</id>
<province>18</province>
<name> آبیک</name>
<latitude>36.04000000</latitude>
<longitude>50.53111100</longitude>
</RECORD>
<RECORD>
<id>295</id>
<province>18</province>
<name> البرز</name>
<latitude>35.99604670</latitude>
<longitude>50.92892460</longitude>
</RECORD>
<RECORD>
<id>296</id>
<province>18</province>
<name> بوئین زهرا</name>
<latitude>35.76694400</latitude>
<longitude>50.05777800</longitude>
</RECORD>
<RECORD>
<id>297</id>
<province>18</province>
<name> تاکستان</name>
<latitude>36.06972200</latitude>
<longitude>49.69583300</longitude>
</RECORD>
<RECORD>
<id>298</id>
<province>18</province>
<name> قزوین</name>
<latitude>36.08813170</latitude>
<longitude>49.85472660</longitude>
</RECORD>
<RECORD>
<id>299</id>
<province>19</province>
<name> قم</name>
<latitude>34.63994430</latitude>
<longitude>50.87594190</longitude>
</RECORD>
<RECORD>
<id>300</id>
<province>20</province>
<name> بانه</name>
<latitude>35.99859990</latitude>
<longitude>45.88234280</longitude>
</RECORD>
<RECORD>
<id>301</id>
<province>20</province>
<name> بیجار</name>
<latitude>32.73527800</latitude>
<longitude>59.46666700</longitude>
</RECORD>
<RECORD>
<id>302</id>
<province>20</province>
<name> دیواندره</name>
<latitude>35.91388900</latitude>
<longitude>47.02388900</longitude>
</RECORD>
<RECORD>
<id>303</id>
<province>20</province>
<name> سروآباد</name>
<latitude>35.31250000</latitude>
<longitude>46.36694400</longitude>
</RECORD>
<RECORD>
<id>304</id>
<province>20</province>
<name> سقز</name>
<latitude>36.24638900</latitude>
<longitude>46.26638900</longitude>
</RECORD>
<RECORD>
<id>305</id>
<province>20</province>
<name> سنندج</name>
<latitude>35.32187480</latitude>
<longitude>46.98616470</longitude>
</RECORD>
<RECORD>
<id>306</id>
<province>20</province>
<name> قروه</name>
<latitude>35.16789340</latitude>
<longitude>47.80382720</longitude>
</RECORD>
<RECORD>
<id>307</id>
<province>20</province>
<name> کامیاران</name>
<latitude>34.79555600</latitude>
<longitude>46.93555600</longitude>
</RECORD>
<RECORD>
<id>308</id>
<province>20</province>
<name> مریوان</name>
<latitude>35.52694400</latitude>
<longitude>46.17638900</longitude>
</RECORD>
<RECORD>
<id>309</id>
<province>21</province>
<name> بافت</name>
<latitude>29.23305600</latitude>
<longitude>56.60222200</longitude>
</RECORD>
<RECORD>
<id>310</id>
<province>21</province>
<name> بردسیر</name>
<latitude>29.92750000</latitude>
<longitude>56.57222200</longitude>
</RECORD>
<RECORD>
<id>311</id>
<province>21</province>
<name> بم</name>
<latitude>29.10611100</latitude>
<longitude>58.35694400</longitude>
</RECORD>
<RECORD>
<id>312</id>
<province>21</province>
<name> جیرفت</name>
<latitude>28.67511240</latitude>
<longitude>57.73715690</longitude>
</RECORD>
<RECORD>
<id>313</id>
<province>21</province>
<name> راور</name>
<latitude>31.26555600</latitude>
<longitude>56.80555600</longitude>
</RECORD>
<RECORD>
<id>314</id>
<province>21</province>
<name> رفسنجان</name>
<latitude>30.40666700</latitude>
<longitude>55.99388900</longitude>
</RECORD>
<RECORD>
<id>315</id>
<province>21</province>
<name> رودبار جنوب</name>
<latitude>36.82412890</latitude>
<longitude>49.42372740</longitude>
</RECORD>
<RECORD>
<id>316</id>
<province>21</province>
<name> زرند</name>
<latitude>30.81277800</latitude>
<longitude>56.56388900</longitude>
</RECORD>
<RECORD>
<id>317</id>
<province>21</province>
<name> سیرجان</name>
<latitude>29.45866760</latitude>
<longitude>55.67140510</longitude>
</RECORD>
<RECORD>
<id>318</id>
<province>21</province>
<name> شهر بابک</name>
<latitude>30.11638900</latitude>
<longitude>55.11861100</longitude>
</RECORD>
<RECORD>
<id>319</id>
<province>21</province>
<name> عنبرآباد</name>
<latitude>28.47833330</latitude>
<longitude>57.84138890</longitude>
</RECORD>
<RECORD>
<id>320</id>
<province>21</province>
<name> قلعه گنج</name>
<latitude>27.52361100</latitude>
<longitude>57.88111100</longitude>
</RECORD>
<RECORD>
<id>321</id>
<province>21</province>
<name> کرمان</name>
<latitude>29.48500890</latitude>
<longitude>57.64390480</longitude>
</RECORD>
<RECORD>
<id>322</id>
<province>21</province>
<name> کوهبنان</name>
<latitude>31.41027800</latitude>
<longitude>56.28250000</longitude>
</RECORD>
<RECORD>
<id>323</id>
<province>21</province>
<name> کهنوج</name>
<latitude>27.94676030</latitude>
<longitude>57.70625720</longitude>
</RECORD>
<RECORD>
<id>324</id>
<province>21</province>
<name> منوجان</name>
<latitude>27.44756260</latitude>
<longitude>57.50516160</longitude>
</RECORD>
<RECORD>
<id>325</id>
<province>22</province>
<name> اسلام آباد غرب</name>
<latitude>33.72938820</latitude>
<longitude>73.09314610</longitude>
</RECORD>
<RECORD>
<id>326</id>
<province>22</province>
<name> پاوه</name>
<latitude>35.04333300</latitude>
<longitude>46.35638900</longitude>
</RECORD>
<RECORD>
<id>327</id>
<province>22</province>
<name> ثلاث باباجانی</name>
<latitude>34.73583710</latitude>
<longitude>46.14939690</longitude>
</RECORD>
<RECORD>
<id>328</id>
<province>22</province>
<name> جوانرود</name>
<latitude>34.80666700</latitude>
<longitude>46.48861100</longitude>
</RECORD>
<RECORD>
<id>329</id>
<province>22</province>
<name> دالاهو</name>
<latitude>34.28416700</latitude>
<longitude>46.24222200</longitude>
</RECORD>
<RECORD>
<id>330</id>
<province>22</province>
<name> روانسر</name>
<latitude>34.71208920</latitude>
<longitude>46.65129980</longitude>
</RECORD>
<RECORD>
<id>332</id>
<province>22</province>
<name> سنقر</name>
<latitude>34.78361100</latitude>
<longitude>47.60027800</longitude>
</RECORD>
<RECORD>
<id>333</id>
<province>22</province>
<name> صحنه</name>
<latitude>34.48138900</latitude>
<longitude>47.69083300</longitude>
</RECORD>
<RECORD>
<id>334</id>
<province>22</province>
<name> قصر شیرین</name>
<latitude>34.51590310</latitude>
<longitude>45.57768590</longitude>
</RECORD>
<RECORD>
<id>335</id>
<province>22</province>
<name> کرمانشاه</name>
<latitude>34.45762330</latitude>
<longitude>46.67053400</longitude>
</RECORD>
<RECORD>
<id>336</id>
<province>22</province>
<name> کنگاور</name>
<latitude>34.50416700</latitude>
<longitude>47.96527800</longitude>
</RECORD>
<RECORD>
<id>337</id>
<province>22</province>
<name> گیلان غرب</name>
<latitude>34.14222200</latitude>
<longitude>45.92027800</longitude>
</RECORD>
<RECORD>
<id>338</id>
<province>22</province>
<name> هرسین</name>
<latitude>34.27191490</latitude>
<longitude>47.60461830</longitude>
</RECORD>
<RECORD>
<id>339</id>
<province>23</province>
<name> بویر احمد</name>
<latitude>30.72458600</latitude>
<longitude>50.84563230</longitude>
</RECORD>
<RECORD>
<id>341</id>
<province>23</province>
<name> دنا</name>
<latitude>30.95166660</latitude>
<longitude>51.43750000</longitude>
</RECORD>
<RECORD>
<id>343</id>
<province>23</province>
<name> گچساران</name>
<latitude>30.35000000</latitude>
<longitude>50.80000000</longitude>
</RECORD>
<RECORD>
<id>344</id>
<province>24</province>
<name> آزادشهر</name>
<latitude>37.08694400</latitude>
<longitude>55.17388900</longitude>
</RECORD>
<RECORD>
<id>345</id>
<province>24</province>
<name> آق قلا</name>
<latitude>37.01388900</latitude>
<longitude>54.45500000</longitude>
</RECORD>
<RECORD>
<id>346</id>
<province>24</province>
<name> بندر گز</name>
<latitude>36.77496500</latitude>
<longitude>53.94617490</longitude>
</RECORD>
<RECORD>
<id>347</id>
<province>24</province>
<name> بندر ترکمن</name>
<latitude>36.90166700</latitude>
<longitude>54.07083300</longitude>
</RECORD>
<RECORD>
<id>348</id>
<province>24</province>
<name> رامیان</name>
<latitude>37.01611100</latitude>
<longitude>55.14111100</longitude>
</RECORD>
<RECORD>
<id>349</id>
<province>24</province>
<name> علی آباد</name>
<latitude>36.30822600</latitude>
<longitude>74.61954740</longitude>
</RECORD>
<RECORD>
<id>350</id>
<province>24</province>
<name> کرد کوی</name>
<latitude>36.79414260</latitude>
<longitude>54.11027400</longitude>
</RECORD>
<RECORD>
<id>351</id>
<province>24</province>
<name> کلاله</name>
<latitude>37.38083300</latitude>
<longitude>55.49166700</longitude>
</RECORD>
<RECORD>
<id>352</id>
<province>24</province>
<name> گرگان</name>
<latitude>36.84564270</latitude>
<longitude>54.43933630</longitude>
</RECORD>
<RECORD>
<id>353</id>
<province>24</province>
<name> گنبد کاووس</name>
<latitude>37.25000000</latitude>
<longitude>55.16722200</longitude>
</RECORD>
<RECORD>
<id>354</id>
<province>24</province>
<name> مینو دشت</name>
<latitude>37.22888900</latitude>
<longitude>55.37472200</longitude>
</RECORD>
<RECORD>
<id>355</id>
<province>25</province>
<name> آستارا</name>
<latitude>38.42916700</latitude>
<longitude>48.87194400</longitude>
</RECORD>
<RECORD>
<id>356</id>
<province>25</province>
<name> آستانه اشرفیه</name>
<latitude>37.25980220</latitude>
<longitude>49.94366210</longitude>
</RECORD>
<RECORD>
<id>357</id>
<province>25</province>
<name> املش</name>
<latitude>37.09163340</latitude>
<longitude>50.18693770</longitude>
</RECORD>
<RECORD>
<id>358</id>
<province>25</province>
<name> بندر انزلی</name>
<latitude>37.47244670</latitude>
<longitude>49.45873120</longitude>
</RECORD>
<RECORD>
<id>359</id>
<province>25</province>
<name> رشت</name>
<latitude>37.28083300</latitude>
<longitude>49.58305600</longitude>
</RECORD>
<RECORD>
<id>360</id>
<province>25</province>
<name> رضوانشهر</name>
<latitude>37.55067500</latitude>
<longitude>49.14098010</longitude>
</RECORD>
<RECORD>
<id>361</id>
<province>25</province>
<name> رودبار</name>
<latitude>36.82412890</latitude>
<longitude>49.42372740</longitude>
</RECORD>
<RECORD>
<id>362</id>
<province>25</province>
<name> رودسر</name>
<latitude>37.13784150</latitude>
<longitude>50.28361990</longitude>
</RECORD>
<RECORD>
<id>363</id>
<province>25</province>
<name> سیاهکل</name>
<latitude>37.15277800</latitude>
<longitude>49.87083300</longitude>
</RECORD>
<RECORD>
<id>364</id>
<province>25</province>
<name> شفت</name>
<latitude>39.63063100</latitude>
<longitude>-78.92954200</longitude>
</RECORD>
<RECORD>
<id>365</id>
<province>25</province>
<name> صومعه سرا</name>
<latitude>37.31166700</latitude>
<longitude>49.32194400</longitude>
</RECORD>
<RECORD>
<id>366</id>
<province>25</province>
<name> طوالش</name>
<latitude>37.00000000</latitude>
<longitude>48.42222220</longitude>
</RECORD>
<RECORD>
<id>367</id>
<province>25</province>
<name> فومن</name>
<latitude>37.22388900</latitude>
<longitude>49.31250000</longitude>
</RECORD>
<RECORD>
<id>368</id>
<province>25</province>
<name> لاهیجان</name>
<latitude>37.20722200</latitude>
<longitude>50.00388900</longitude>
</RECORD>
<RECORD>
<id>369</id>
<province>25</province>
<name> لنگرود</name>
<latitude>37.19694400</latitude>
<longitude>50.15361100</longitude>
</RECORD>
<RECORD>
<id>370</id>
<province>25</province>
<name> ماسال</name>
<latitude>37.36211850</latitude>
<longitude>49.13147690</longitude>
</RECORD>
<RECORD>
<id>371</id>
<province>26</province>
<name> ازنا</name>
<latitude>33.45583300</latitude>
<longitude>49.45555600</longitude>
</RECORD>
<RECORD>
<id>372</id>
<province>26</province>
<name> الیگودرز</name>
<latitude>33.40055600</latitude>
<longitude>49.69500000</longitude>
</RECORD>
<RECORD>
<id>373</id>
<province>26</province>
<name> بروجرد</name>
<latitude>33.89419930</latitude>
<longitude>48.76703300</longitude>
</RECORD>
<RECORD>
<id>374</id>
<province>26</province>
<name> پلدختر</name>
<latitude>33.15361100</latitude>
<longitude>47.71361100</longitude>
</RECORD>
<RECORD>
<id>375</id>
<province>26</province>
<name> خرم آباد</name>
<latitude>33.48777800</latitude>
<longitude>48.35583300</longitude>
</RECORD>
<RECORD>
<id>376</id>
<province>26</province>
<name> دورود</name>
<latitude>33.49550280</latitude>
<longitude>49.06317430</longitude>
</RECORD>
<RECORD>
<id>377</id>
<province>26</province>
<name> دلفان</name>
<latitude>33.50340140</latitude>
<longitude>48.35758360</longitude>
</RECORD>
<RECORD>
<id>378</id>
<province>26</province>
<name> سلسله</name>
<latitude>32.04577600</latitude>
<longitude>34.75163900</longitude>
</RECORD>
<RECORD>
<id>379</id>
<province>26</province>
<name> کوهدشت</name>
<latitude>33.53500000</latitude>
<longitude>47.60611100</longitude>
</RECORD>
<RECORD>
<id>380</id>
<province>26</province>
<name> الشتر</name>
<latitude>33.86398880</latitude>
<longitude>48.26423870</longitude>
</RECORD>
<RECORD>
<id>381</id>
<province>26</province>
<name> نورآباد</name>
<latitude>30.11416700</latitude>
<longitude>51.52166700</longitude>
</RECORD>
<RECORD>
<id>382</id>
<province>27</province>
<name> آمل</name>
<latitude>36.46972200</latitude>
<longitude>52.35083300</longitude>
</RECORD>
<RECORD>
<id>383</id>
<province>27</province>
<name> بابل</name>
<latitude>32.46819100</latitude>
<longitude>44.55019350</longitude>
</RECORD>
<RECORD>
<id>384</id>
<province>27</province>
<name> بابلسر</name>
<latitude>36.70250000</latitude>
<longitude>52.65750000</longitude>
</RECORD>
<RECORD>
<id>385</id>
<province>27</province>
<name> بهشهر</name>
<latitude>36.69222200</latitude>
<longitude>53.55250000</longitude>
</RECORD>
<RECORD>
<id>386</id>
<province>27</province>
<name> تنکابن</name>
<latitude>36.81638900</latitude>
<longitude>50.87388900</longitude>
</RECORD>
<RECORD>
<id>387</id>
<province>27</province>
<name> جویبار</name>
<latitude>36.64111100</latitude>
<longitude>52.91250000</longitude>
</RECORD>
<RECORD>
<id>388</id>
<province>27</province>
<name> چالوس</name>
<latitude>36.64591740</latitude>
<longitude>51.40697900</longitude>
</RECORD>
<RECORD>
<id>389</id>
<province>27</province>
<name> رامسر</name>
<latitude>36.90305600</latitude>
<longitude>50.65833300</longitude>
</RECORD>
<RECORD>
<id>390</id>
<province>27</province>
<name> ساری</name>
<latitude>36.56333300</latitude>
<longitude>53.06000000</longitude>
</RECORD>
<RECORD>
<id>391</id>
<province>27</province>
<name> سوادکوه</name>
<latitude>36.30402550</latitude>
<longitude>52.88524030</longitude>
</RECORD>
<RECORD>
<id>392</id>
<province>27</province>
<name> قائم شهر</name>
<latitude>36.46305600</latitude>
<longitude>52.86000000</longitude>
</RECORD>
<RECORD>
<id>393</id>
<province>27</province>
<name> گلوگاه</name>
<latitude>36.72722200</latitude>
<longitude>53.80888900</longitude>
</RECORD>
<RECORD>
<id>394</id>
<province>27</province>
<name> محمود آباد</name>
<latitude>36.63194400</latitude>
<longitude>52.26277800</longitude>
</RECORD>
<RECORD>
<id>395</id>
<province>27</province>
<name> نکا</name>
<latitude>36.65083300</latitude>
<longitude>53.29916700</longitude>
</RECORD>
<RECORD>
<id>396</id>
<province>27</province>
<name> نور</name>
<latitude>50.38512460</latitude>
<longitude>3.26424360</longitude>
</RECORD>
<RECORD>
<id>397</id>
<province>27</province>
<name> نوشهر</name>
<latitude>36.64888900</latitude>
<longitude>51.49611100</longitude>
</RECORD>
<RECORD>
<id>398</id>
<province>27</province>
<name> فریدونکنار</name>
<latitude>36.68638900</latitude>
<longitude>52.52250000</longitude>
</RECORD>
<RECORD>
<id>399</id>
<province>28</province>
<name> آشتیان</name>
<latitude>34.52194400</latitude>
<longitude>50.00611100</longitude>
</RECORD>
<RECORD>
<id>400</id>
<province>28</province>
<name> اراک</name>
<latitude>34.09166700</latitude>
<longitude>49.68916700</longitude>
</RECORD>
<RECORD>
<id>401</id>
<province>28</province>
<name> تفرش</name>
<latitude>34.69194400</latitude>
<longitude>50.01305600</longitude>
</RECORD>
<RECORD>
<id>402</id>
<province>28</province>
<name> خمین</name>
<latitude>33.64061480</latitude>
<longitude>50.07711250</longitude>
</RECORD>
<RECORD>
<id>403</id>
<province>28</province>
<name> دلیجان</name>
<latitude>33.99055600</latitude>
<longitude>50.68388900</longitude>
</RECORD>
<RECORD>
<id>404</id>
<province>28</province>
<name> زرندیه</name>
<latitude>35.30699620</latitude>
<longitude>50.49117920</longitude>
</RECORD>
<RECORD>
<id>405</id>
<province>28</province>
<name> ساوه</name>
<latitude>35.02138900</latitude>
<longitude>50.35666700</longitude>
</RECORD>
<RECORD>
<id>406</id>
<province>28</province>
<name> شازند</name>
<latitude>33.92750000</latitude>
<longitude>49.41166700</longitude>
</RECORD>
<RECORD>
<id>407</id>
<province>28</province>
<name> کمیجان</name>
<latitude>34.71916700</latitude>
<longitude>49.32666700</longitude>
</RECORD>
<RECORD>
<id>408</id>
<province>28</province>
<name> محلات</name>
<latitude>33.90857480</latitude>
<longitude>50.45526160</longitude>
</RECORD>
<RECORD>
<id>409</id>
<province>29</province>
<name> بندرعباس</name>
<latitude>27.18322160</latitude>
<longitude>56.26664550</longitude>
</RECORD>
<RECORD>
<id>410</id>
<province>29</province>
<name> میناب</name>
<latitude>27.14666700</latitude>
<longitude>57.08000000</longitude>
</RECORD>
<RECORD>
<id>411</id>
<province>29</province>
<name> بندر لنگه</name>
<latitude>26.55805600</latitude>
<longitude>54.88055600</longitude>
</RECORD>
<RECORD>
<id>412</id>
<province>29</province>
<name> رودان-دهبارز</name>
<latitude>27.44083300</latitude>
<longitude>57.19250000</longitude>
</RECORD>
<RECORD>
<id>413</id>
<province>29</province>
<name> جاسک</name>
<latitude>25.64388900</latitude>
<longitude>57.77444400</longitude>
</RECORD>
<RECORD>
<id>414</id>
<province>29</province>
<name> قشم</name>
<latitude>26.81186730</latitude>
<longitude>55.89132070</longitude>
</RECORD>
<RECORD>
<id>415</id>
<province>29</province>
<name> حاجی آباد</name>
<latitude>28.30916700</latitude>
<longitude>55.90166700</longitude>
</RECORD>
<RECORD>
<id>416</id>
<province>29</province>
<name> ابوموسی</name>
<latitude>25.87971060</latitude>
<longitude>55.03280170</longitude>
</RECORD>
<RECORD>
<id>417</id>
<province>29</province>
<name> بستک</name>
<latitude>27.19916700</latitude>
<longitude>54.36666700</longitude>
</RECORD>
<RECORD>
<id>418</id>
<province>29</province>
<name> گاوبندی</name>
<latitude>27.20833300</latitude>
<longitude>53.03611100</longitude>
</RECORD>
<RECORD>
<id>419</id>
<province>29</province>
<name> خمیر</name>
<latitude>26.95222200</latitude>
<longitude>55.58500000</longitude>
</RECORD>
<RECORD>
<id>420</id>
<province>30</province>
<name> اسدآباد</name>
<latitude>34.78250000</latitude>
<longitude>48.11861100</longitude>
</RECORD>
<RECORD>
<id>421</id>
<province>30</province>
<name> بهار</name>
<latitude>34.90832520</latitude>
<longitude>48.43927290</longitude>
</RECORD>
<RECORD>
<id>422</id>
<province>30</province>
<name> تویسرکان</name>
<latitude>34.54805600</latitude>
<longitude>48.44694400</longitude>
</RECORD>
<RECORD>
<id>423</id>
<province>30</province>
<name> رزن</name>
<latitude>35.38666700</latitude>
<longitude>49.03388900</longitude>
</RECORD>
<RECORD>
<id>424</id>
<province>30</province>
<name> کبودر آهنگ</name>
<latitude>35.20833300</latitude>
<longitude>48.72388900</longitude>
</RECORD>
<RECORD>
<id>425</id>
<province>30</province>
<name> ملایر</name>
<latitude>34.29694400</latitude>
<longitude>48.82361100</longitude>
</RECORD>
<RECORD>
<id>426</id>
<province>30</province>
<name> نهاوند</name>
<latitude>34.18861100</latitude>
<longitude>48.37694400</longitude>
</RECORD>
<RECORD>
<id>427</id>
<province>30</province>
<name> همدان</name>
<latitude>34.76079990</latitude>
<longitude>48.39881860</longitude>
</RECORD>
<RECORD>
<id>428</id>
<province>31</province>
<name> ابرکوه</name>
<latitude>31.13040360</latitude>
<longitude>53.25037360</longitude>
</RECORD>
<RECORD>
<id>429</id>
<province>31</province>
<name> اردکان</name>
<latitude>32.31000000</latitude>
<longitude>54.01750000</longitude>
</RECORD>
<RECORD>
<id>430</id>
<province>31</province>
<name> بافق</name>
<latitude>31.61277800</latitude>
<longitude>55.41055600</longitude>
</RECORD>
<RECORD>
<id>431</id>
<province>31</province>
<name> تفت</name>
<latitude>27.97890740</latitude>
<longitude>-97.39860410</longitude>
</RECORD>
<RECORD>
<id>432</id>
<province>31</province>
<name> خاتم</name>
<latitude>37.27091520</latitude>
<longitude>49.59691460</longitude>
</RECORD>
<RECORD>
<id>433</id>
<province>31</province>
<name> صدوق</name>
<latitude>32.02421620</latitude>
<longitude>53.47703590</longitude>
</RECORD>
<RECORD>
<id>434</id>
<province>31</province>
<name> طبس</name>
<latitude>33.59583300</latitude>
<longitude>56.92444400</longitude>
</RECORD>
<RECORD>
<id>435</id>
<province>31</province>
<name> مهریز</name>
<latitude>31.59166700</latitude>
<longitude>54.43166700</longitude>
</RECORD>
<RECORD>
<id>436</id>
<province>31</province>
<name> میبد</name>
<latitude>32.24872260</latitude>
<longitude>54.00793410</longitude>
</RECORD>
<RECORD>
<id>437</id>
<province>31</province>
<name> یزد</name>
<latitude>32.10063870</latitude>
<longitude>54.43421380</longitude>
</RECORD>
</RECORDS>